"관광지명",관광지구분,소재지도로명주소,소재지지번주소,위도,경도,면적,공공편익시설정보,숙박시설정보,운동및오락시설정보,휴양및문화시설정보,접객시설정보,지원시설정보,지정일자,수용인원수,주차가능수,관광지소개,관리기관전화번호,관리기관명,데이터기준일자
"허준근린공원",관광지,서울특별시 강서구 허준로5길 42,,37.56759867,126.8537291,29843,화장실+주차장,,,,,,1993-10-31,20000,10,공원주위에는 서울 기념물 제11호인 허가바위가 있고 공원내에는 전설이 깃든 광주바위와 허준 선생이 앉아서 병자를 진료하는 인자한 모습의 동상 그리고 호수 정자 어린이 놀이 시설이 있으며 인근 주민들의 휴식공간으로 이용되고 있다.,02-2600-4185,서울특별시 강서구청,2023-03-14
"양천향교",관광지,서울특별시 강서구 양천로47나길 53,,37.572863,126.839905,1782,화장실,,,,,,1990-06-18,100,0,조선 태종 11년(1411년)에 만들어졌으며 현재 서울에 남아있는 유일한 향교이다. 이름 때문에 양천구에 위치한 것으로 오해할 수 있으나 실제로는 강서구 가양동에 위치하고 있다. 인근에 위치한 서울 지하철 9호선 양천향교역 역시 이 곳의 이름을 따서 제정되었다.,02-2659-0076,서울특별시 향교재단,2023-03-14
"약사사",관광지,서울특별시 강서구 금낭화로17길 261,,37.58312625,126.8050072,678,화장실+주차장,,,,,,1980-06-11,12000,50,서울 강서구 관내 전통사찰 중 제1의 위상을 지닌 대한불교조계종 직할교구 사찰,02-2664-2550,약사사,2023-03-14
"양천고성지",관광지,서울특별시 강서구 양천로47나길 52-54,,37.57425363,126.8413319,29752,전기시설,,,,,,1992-03-10,1000,0,양천고성지는 양천향교의 뒷산인 궁산에 있는 옛 성터. 백제 22대 문주왕이 웅진으로 천도(475년)하기 전 강 건너 고구려 침입에 대비하기 위해 쌓은 성으로 조선 성종(1470년)까지 요새가 있었던 것으로 짐작된다.,02-2600-6456,서울특별시 강서구청,2023-03-14
"궁산땅굴역사전시관",관광지,서울특별시 강서구 양천로49길 106,,37.57266746,126.8383649,758.11,전기시설,,,,,,2018-05-11,15,0,"궁산 땅굴은 태평양전쟁 말기 일제 강점기에 굴착된 곳으로, 무기나 탄약 등, 군수물 자를 저장하거나 김포 비행장을 감시하고, 공습 때에는 부대 본부로 사용하기 위한 곳이었다고 전해진다.",02-2600-6081,서울특별시 강서구청,2023-03-14
"허가바위",관광지,서울특별시 강서구 허준로5길 15,,37.56983571,126.8500301,7456,전기시설,,,,,,1991-12-24,20,0,옛날 석기 시대의 사람들이 이곳에서 살았으리라 짐작되는 혈거동굴로서 연구 가치가 매우 높다. 허준은 허가바위에서 『동의보감』을 완성했다고 한다.,02-2600-6456,서울특별시 강서구청,2023-03-14
